[
  {
    "name": "4 by 4 Brewing",
    "website": "http://www.4by4brewingcompany.com/",
    "facebook": "https://www.facebook.com/4by4brewingco/",
    "address": "2811 E. Galloway St. Ste A, Springfield, Missouri 65804",
    "phone": "4178616400",
    "delivery": false,
    "curbside": true,
    "drive-thru": false,
    "inside-pickup": false,
    "alcohol": true,
    "hours": "11am-8pm every day",
    "food": ["alcohol", "beer"],
    "area": ["South", "East"],
    "city": "Springfield",
    "comments": "Cans/growlers available."
  },
  {
    "name": "5 Spice China Grill",
    "website": "https://www.eatoceanzen.com/",
    "facebook": "https://www.facebook.com/5-Spice-China-Grill-182145216046/",
    "address": "2058 S Glenstone Ave, Springfield, Missouri 65804",
    "phone": "4177990215",
    "delivery": true,
    "curbside": false,
    "drive-thru": true,
    "inside-pickup": false,
    "alcohol": false,
    "hours": "11am-10pm every day",
    "food": ["chinese"],
    "area": ["East"],
    "city": "Springfield",
    "comments": "Grubhub, UberEats, or carGO for delivery."
  },
  {
    "name": "Antojos Tacos y Mas",
    "website": "https://www.facebook.com/Antojos-Tacos-y-Mas-1762664180422464/",
    "facebook": "https://www.facebook.com/Antojos-Tacos-y-Mas-1762664180422464/",
    "address": "1342 W. Sunshine St., Springfield, Missouri 65807",
    "phone": "4177557934",
    "delivery": true,
    "curbside": true,
    "drive-thru": false,
    "inside-pickup": false,
    "alcohol": false,
    "hours": "11am-8pm every day",
    "food": ["Latin American"],
    "area": ["South"],
    "city": "Springfield",
    "comments": "DoorDash and carGO for delivery."
  },
  {
    "name": "Archie's Italian Eatery",
    "website": "https://archiesitalian.com/",
    "facebook": "https://www.facebook.com/archiesitalian/",
    "address": "1410 E. Republic Rd., Springfield, Missouri 65804",
    "phone": "4177201763",
    "delivery": true,
    "curbside": true,
    "drive-thru": false,
    "inside-pickup": false,
    "alcohol": false,
    "hours": "11am-9pm Monday through Saturday",
    "food": ["Italian"],
    "area": ["South"],
    "city": "Springfield",
    "comments": "GrubHub, DoorDash, Postmates, UberEats, carGO, and Toast for delivery."
  },
  {
    "name": "Architect Coffee Co.",
    "website": "https://www.architectcoffeeco.com/",
    "facebook": "https://www.facebook.com/architectcoffeeco/",
    "address": "1604 E Republic Rd, Springfield, Missouri 65804",
    "phone": "4177715030",
    "delivery": false,
    "curbside": false,
    "drive-thru": false,
    "inside-pickup": true,
    "alcohol": false,
    "hours": "7am-9pm Monday through Friday and 8am-9pm Saturday",
    "food": ["Coffe", "Breakfast", "Lunch"],
    "area": ["South", "East"],
    "city": "Springfield",
    "comments": "Kitchen will be closing at 1pm daily."
  },
  {
    "name": "Arris' Pizza",
    "website": "http://annexandarris.com/cafe-home/",
    "facebook": "https://www.facebook.com/ArrisPizzaSpringfield/",
    "address": "1332 E Republic Rd., Springfield, Missouri 65804",
    "phone": "4178817260",
    "delivery": true,
    "curbside": true,
    "drive-thru": false,
    "inside-pickup": true,
    "alcohol": false,
    "hours": "11am-2pm and 5pm-9pm every day",
    "food": ["Pizza", "Greek"],
    "area": ["South"],
    "city": "Springfield",
    "comments": "Delivery available with a minimum $30 purchase. No delivery fee is charged but tips for drivers are appreciated."
  },
  {
    "name": "Asia Express",
    "website": "https://www.facebook.com/Asia-Express-1835665249777571/",
    "facebook": "https://www.facebook.com/Asia-Express-1835665249777571/",
    "address": "2462 S Campbell Ave, Springfield, Missouri 65807-2904",
    "phone": "4178832462",
    "delivery": false,
    "curbside": true,
    "drive-thru": true,
    "inside-pickup": true,
    "alcohol": false,
    "hours": "11am-9pm Monday through Saturday",
    "food": ["Vietnamese", "Chinese"],
    "area": ["South", "West"],
    "city": "Springfield",
    "comments": "Call for specials."
  },
  {
    "name": "Aviary Cafe - Farmers Park",
    "website": "http://www.aviarycafe.com/",
    "facebook": "https://www.facebook.com/AviaryFarmersPark",
    "address": "2144 E Republic Rd Springfield, Missouri 65804",
    "phone": "4178819736",
    "delivery": true,
    "curbside": true,
    "drive-thru": false,
    "inside-pickup": true,
    "alcohol": false,
    "hours": "8am to 8pm Monday through Saturday and 8am to 6pm on Sundays",
    "food": ["French", "Breakfast", "Brunch", "Cafe"],
    "area": ["South", "West"],
    "city": "Springfield",
    "comments": "Order online available."
  },
  {
    "name": "Aviary Cafe - Downtown",
    "website": "http://www.aviarycafe.com/",
    "facebook": "https://www.facebook.com/AviaryFarmersPark",
    "address": "2144 E Republic Rd Springfield, Missouri 65804",
    "phone": "4178666378",
    "delivery": true,
    "curbside": true,
    "drive-thru": false,
    "inside-pickup": true,
    "alcohol": false,
    "hours": "9am to 2pm",
    "food": ["French", "Breakfast", "Brunch", "Cafe"],
    "area": ["Downtown"],
    "city": "Springfield",
    "comments": "Order online available."
  },
  {
    "name": "B2 Cafe",
    "website": "https://go2b2.com/",
    "facebook": "https://www.facebook.com/B2CafeSpringfield/",
    "address": "2804 E Battlefield Rd Springfield, Missouri 65804",
    "phone": "4178835748",
    "delivery": true,
    "curbside": true,
    "drive-thru": false,
    "inside-pickup": false,
    "alcohol": false,
    "hours": "8am to 4pm",
    "food": ["Cafe", "Coffee", "Desserts"],
    "area": ["East"],
    "city": "Springfield",
    "comments": "Free delivery!"
  }
]
